CANMORE ID,SITE NUMBER,SITE NAME,SITE TYPE,LATITUDE,LONGITUDE,COUNCIL,COUNTY,PARISH,NGR,URL,
44353,NS56SE 870,"Glasgow, Govan, Prince's Dock",Dock (19th Century),55.8566779067,-4.2939465760,"GLASGOW, CITY OF",LANARKSHIRE,GOVAN (CITY OF GLASGOW),NS 5651 6499,http://canmore.org.uk/site/44353
44157,NS56NE 880,"Glasgow, Stobcross, Queen's Dock",Dock (Period Unassigned),55.8607113226,-4.2897098193,"GLASGOW, CITY OF",LANARKSHIRE,GLASGOW (CITY OF GLASGOW),NS 56790 65430,http://canmore.org.uk/site/44157
168247,NS56NE 1938,"Glasgow, Kelvinhaugh Slip Dock",Dock (19th Century),55.8627907320,-4.2986859269,"GLASGOW, CITY OF",LANARKSHIRE,GLASGOW (CITY OF GLASGOW),NS 56236 65680,http://canmore.org.uk/site/168247
173856,NS56SE 12430,"Glasgow, Kingston Dock",Dock (19th Century),55.8546526012,-4.2674633942,"GLASGOW, CITY OF",LANARKSHIRE,GLASGOW (CITY OF GLASGOW),NS 5816 6471,http://canmore.org.uk/site/173856
78695,NS56NW 64,"Glasgow, Shieldhall, King George V Dock",Dock (Period Unassigned),55.8691693621,-4.3525305318,"GLASGOW, CITY OF",LANARKSHIRE,GOVAN (CITY OF GLASGOW),NS 52891 66503,http://canmore.org.uk/site/78695
169692,NS66NW 2731,"Glasgow, Monkland Canal, Blackhill Locks, Upper Terminus And Dock","Boat Yard (Period Unassigned), Dock (Period Unassigned)",55.8720027291,-4.1928660364,"GLASGOW, CITY OF",LANARKSHIRE,GLASGOW (CITY OF GLASGOW),NS 6289 6649,http://canmore.org.uk/site/169692
349401,NS56NW 529,"River Clyde, Glasgow, Yoker",Dock (19th Century),55.8881743433,-4.3853933576,"GLASGOW, CITY OF",LANARKSHIRE,RENFREW (CITY OF GLASGOW),NS 50908 68688,http://canmore.org.uk/site/349401
354067,NS37SW 235,"Port Glasgow, Wet Dock",Dock,55.9348995796,-4.6836580117,INVERCLYDE,RENFREWSHIRE,PORT GLASGOW,NS 32460 74570,http://canmore.org.uk/site/354067
